,City,Cloudiness,Country,Humidity,Lat,Lng,Max Temp,Wind Speed
0,namibe,0.0,AO,100.0,-15.19,12.15,77.62460000000007,9.171461592951147
2,avarua,80.0,CK,88.0,-21.21,-159.78,80.6,11.408403444890453
3,cape town,0.0,ZA,88.0,-33.93,18.42,66.99199999999999,13.869039482023688
4,puerto ayora,20.0,EC,74.0,-0.74,-90.35,84.2,9.171461592951147
5,ribeira grande,20.0,PT,72.0,38.52,-28.7,59.0,8.052990666981495
6,veraval,0.0,FR,60.0,49.65,0.71,42.998000000000026,5.816048815042191
7,venado tuerto,0.0,AR,18.0,-33.75,-61.97,71.99600000000005,11.005753911541378
8,kieta,12.0,PG,100.0,-6.22,155.63,78.88460000000005,4.026495333490748
9,faanui,44.0,PF,96.0,-16.48,-151.75,85.72460000000007,14.540122037605478
10,mirsid,0.0,RO,62.0,47.23,23.13,51.998000000000026,5.816048815042191
11,pevek,32.0,RU,86.0,69.7,170.27,-6.345399999999941,10.401779611517766
12,ocampo,92.0,PH,100.0,13.56,123.37,72.94460000000002,3.2435656853119914
13,lebu,20.0,ET,32.0,8.96,38.73,66.2,6.934519741011844
14,batagay-alyta,0.0,RU,36.0,67.8,130.41,-26.145399999999952,3.2435656853119914
16,daru,48.0,SL,74.0,7.99,-10.85,79.87460000000007,5.927895907639157
18,bitung,20.0,ID,88.0,1.44,125.19,75.2,2.2369418519393043
19,nikolskoye,0.0,RU,69.0,59.7,30.79,35.00600000000003,6.710825555817913
20,new norfolk,20.0,AU,41.0,-42.78,147.06,59.0,32.21196266792598
21,luwero,12.0,UG,77.0,0.85,32.47,67.9046,8.500379037369356
22,chokurdakh,20.0,RU,60.0,70.62,147.9,-13.005399999999973,3.131718592715026
24,kalabo,48.0,ZM,42.0,-15.0,22.67,77.62460000000007,8.052990666981495
25,great falls,90.0,US,92.0,47.5,-111.29,35.99600000000005,6.934519741011844
27,bandarbeyla,48.0,SO,100.0,9.49,50.81,79.42460000000007,5.256813352057366
28,albany,75.0,US,17.0,42.65,-73.75,55.99400000000007,12.750568556054036
31,arraial do cabo,20.0,BR,65.0,-22.97,-42.02,82.4,9.171461592951147
32,punta arenas,75.0,CL,58.0,-53.16,-70.91,57.2,24.158972000944487
34,rikitea,64.0,PF,99.0,-23.12,-134.97,78.97460000000007,13.757192389426722
35,dikson,80.0,RU,94.0,73.51,80.55,22.184600000000046,36.573999279207634
36,rawson,8.0,AR,49.0,-43.3,-65.11,61.78460000000005,9.283308685548114
38,ushuaia,75.0,AR,30.0,-54.81,-68.31,59.0,6.934519741011844
40,teya,5.0,MX,31.0,21.05,-89.07,89.6,8.052990666981495
41,busselton,0.0,AU,43.0,-33.64,115.35,51.998000000000026,17.671840630320506
42,roma,0.0,IT,82.0,41.89,12.48,57.00200000000008,2.2369418519393043
43,saint george,0.0,GR,87.0,39.45,22.34,44.6,2.125094759342339
44,hirara,100.0,JP,100.0,24.8,125.28,71.9546,13.197956926441895
45,silale,32.0,LT,87.0,55.49,22.18,30.554600000000004,8.388531944772392
46,mataura,36.0,NZ,92.0,-46.19,168.86,60.998000000000026,9.059614500354183
47,sassuolo,0.0,IT,48.0,44.54,10.78,60.998000000000026,8.052990666981495
48,zaysan,0.0,KZ,72.0,47.47,84.87,22.904600000000006,3.2435656853119914
49,eunice,75.0,US,50.0,30.49,-92.42,78.00800000000001,6.934519741011844
50,bethel,90.0,US,100.0,60.79,-161.76,33.8,21.922030149005185
51,tres arroyos,92.0,AR,80.0,-38.38,-60.28,58.544600000000024,17.78368772291747
52,mar del plata,12.0,AR,57.0,-46.43,-67.52,64.84460000000003,7.605602296593635
53,cotui,40.0,DO,74.0,19.05,-70.15,86.0,4.697577889072539
54,hobart,20.0,AU,41.0,-42.88,147.33,59.0,32.21196266792598
55,port alfred,80.0,ZA,95.0,-33.59,26.89,71.00600000000003,4.004125914971355
58,ponta do sol,56.0,BR,77.0,-20.63,-46.0,75.28460000000004,2.6843302223271652
59,anchorage,75.0,US,86.0,61.22,-149.89,44.99600000000005,3.3554127779089566
60,aqtobe,40.0,KZ,93.0,50.28,57.21,42.8,11.184709259696522
61,holme,92.0,GB,81.0,53.7,-2.31,50.0,16.10598133396299
62,khatanga,80.0,RU,69.0,71.98,102.47,4.724600000000066,10.2899325189208
63,tasiilaq,92.0,GL,67.0,65.61,-37.64,21.2,25.27744292691414
64,gawler,75.0,AU,67.0,-34.6,138.75,62.00600000000003,20.80355922303553
65,thompson,20.0,CA,31.0,55.74,-97.86,21.2,9.171461592951147
67,neryungri,76.0,RU,67.0,56.66,124.71,5.084600000000044,14.092733667217617
68,nova olimpia,20.0,BR,69.0,-14.8,-57.29,88.06460000000008,4.362036611281644
69,ancud,20.0,CL,67.0,-41.87,-73.83,59.0,11.408403444890453
70,hithadhoo,92.0,MV,100.0,-0.6,73.08,84.37460000000007,8.612226129966322
71,livani,32.0,LV,69.0,56.35,26.18,28.844600000000025,8.164837759578461
72,toyooka,0.0,JP,78.0,35.55,134.82,22.274600000000067,2.5724831297302
73,san policarpo,88.0,PH,93.0,12.18,125.51,76.09460000000003,10.737320889308661
74,atuona,36.0,PF,100.0,-9.8,-139.03,82.12460000000007,15.994134241366027
75,mount gambier,75.0,AU,62.0,-37.83,140.78,51.8,20.80355922303553
76,ararat,44.0,AU,81.0,-37.28,142.93,52.1546,14.204580759814583
77,cabo san lucas,5.0,MX,41.0,22.89,-109.91,86.0,10.2899325189208
78,cheremukhovo,56.0,RU,93.0,56.23,46.23,28.484600000000047,6.598978463220948
79,sept-iles,20.0,CA,26.0,50.2,-66.38,23.0,19.461394111871947
80,bredasdorp,0.0,ZA,82.0,-34.53,20.04,68.0,3.3554127779089566
81,east london,0.0,ZA,88.0,-33.02,27.91,68.0,9.171461592951147
83,kribi,92.0,CM,99.0,2.94,9.91,74.6546,2.5724831297302
84,lavrentiya,92.0,RU,99.0,65.58,-170.99,31.814600000000087,21.027253408229463
85,moron,0.0,VE,57.0,10.49,-68.2,82.12460000000007,4.92127207426647
86,sitka,0.0,US,55.0,37.17,-99.65,60.998000000000026,9.99913007816869
87,tucuman,24.0,PE,51.0,-17.17,-70.89,70.42460000000007,3.6909540556998524
88,naze,40.0,NG,83.0,5.43,7.07,80.6,7.381908111399705
89,carnarvon,0.0,ZA,46.0,-30.97,22.13,64.48460000000004,7.9411435743845304
90,sur,24.0,OM,100.0,22.57,59.53,71.86460000000008,12.974262741247966
91,langham,20.0,CA,55.0,52.36,-106.96,33.998000000000026,11.408403444890453
92,fortuna,0.0,ES,62.0,38.18,-1.13,59.0,4.697577889072539
93,yar-sale,88.0,RU,89.0,66.83,70.83,29.204600000000006,17.895534815514434
94,okhotsk,36.0,RU,86.0,59.36,143.24,14.804600000000004,4.697577889072539
95,poso,32.0,ID,100.0,-1.4,120.75,78.52460000000006,3.8028011482968176
96,dangtu,44.0,CN,93.0,31.57,118.49,55.004000000000055,2.2369418519393043
97,port lincoln,44.0,AU,89.0,-34.72,135.86,61.42460000000007,23.487889445362697
98,juneau,40.0,US,75.0,58.3,-134.42,48.2,9.171461592951147
99,bull savanna,64.0,JM,58.0,17.89,-77.59,80.14460000000003,5.927895907639157
100,barrow,92.0,AR,80.0,-38.31,-60.23,58.544600000000024,17.78368772291747
101,ust-omchug,56.0,RU,62.0,61.13,149.63,-5.625399999999935,2.460636037133235
102,inhambane,20.0,MZ,83.0,-23.87,35.38,77.0,7.9411435743845304
103,yellowknife,75.0,CA,57.0,62.45,-114.38,24.998000000000026,19.461394111871947
104,mettur,0.0,IN,75.0,11.8,77.8,69.61460000000008,2.125094759342339
105,chuy,0.0,UY,69.0,-33.69,-53.46,69.25460000000001,18.678464463693192
106,margate,20.0,AU,41.0,-43.03,147.26,59.0,32.21196266792598
107,kavieng,76.0,PG,100.0,-2.57,150.8,82.12460000000007,8.612226129966322
108,diffa,0.0,NE,19.0,13.32,12.61,82.66460000000009,11.743944722681348
109,kodiak,90.0,US,100.0,39.95,-94.76,57.00200000000008,6.934519741011844
110,jamestown,76.0,AU,83.0,-33.21,138.6,54.94460000000002,14.540122037605478
111,tautira,75.0,PF,70.0,-17.73,-149.15,87.8,3.3554127779089566
112,tokur,12.0,RU,51.0,53.13,132.9,-5.985399999999963,2.3487889445362695
113,lumajang,68.0,ID,100.0,-8.14,113.22,76.9046,2.125094759342339
114,hilo,90.0,US,83.0,19.71,-155.08,69.99800000000002,8.052990666981495
115,ostrovnoy,88.0,RU,90.0,68.05,39.51,30.644600000000025,14.204580759814583
116,rincon,40.0,US,38.0,32.3,-81.24,78.00800000000001,5.816048815042191
117,pelym,20.0,RU,91.0,61.01,62.0,31.454600000000006,4.138342426087713
118,alofi,40.0,NU,65.0,-19.06,-169.92,80.6,13.869039482023688
119,talnakh,88.0,RU,86.0,69.49,88.39,14.714600000000086,8.164837759578461
120,los llanos de aridane,75.0,ES,59.0,28.66,-17.92,64.4,2.2369418519393043
121,tigil,64.0,RU,77.0,57.8,158.67,10.484600000000047,8.724073222563288
123,muyezerskiy,88.0,RU,76.0,63.93,31.65,31.274600000000067,8.612226129966322
125,norman wells,90.0,CA,63.0,65.28,-126.83,28.4,9.171461592951147
126,dukat,0.0,RS,50.0,42.44,22.31,46.004000000000055,1.3421651111635826
127,antofagasta,0.0,CL,64.0,-23.65,-70.4,69.8,13.869039482023688
128,bluff,0.0,AU,91.0,-23.58,149.07,68.71460000000009,3.467259870505922
129,salalah,20.0,OM,78.0,17.01,54.1,78.8,8.052990666981495
130,ribeira brava,40.0,PT,72.0,32.65,-17.07,64.4,17.224452259932644
131,mahebourg,75.0,MU,83.0,-20.41,57.7,80.6,9.171461592951147
132,doha,0.0,QA,78.0,25.29,51.53,73.4,17.224452259932644
133,vila franca do campo,20.0,PT,77.0,37.72,-25.43,59.0,8.052990666981495
134,kaitangata,44.0,NZ,95.0,-46.28,169.85,63.314600000000084,2.9080244075210957
135,pakxan,20.0,LA,95.0,18.39,103.66,68.44460000000002,2.013247666745374
136,staritsa,32.0,RU,79.0,56.51,34.93,32.26460000000009,13.086109833844931
137,vaini,44.0,IN,90.0,15.34,74.49,68.62460000000007,1.006623833372687
139,saskylakh,56.0,RU,48.0,71.97,114.09,-16.785399999999967,2.9080244075210957
140,whitehorse,40.0,CA,48.0,60.72,-135.06,44.6,11.408403444890453
141,harper,75.0,US,68.0,30.3,-99.24,75.99199999999999,8.052990666981495
142,luderitz,36.0,NA,91.0,-26.65,15.16,60.704600000000006,13.757192389426722
143,clyde river,75.0,CA,76.0,70.47,-68.59,-11.199999999999946,32.21196266792598
145,reconquista,12.0,AR,66.0,-29.14,-59.64,81.58460000000005,4.697577889072539
146,samarai,88.0,PG,100.0,-10.62,150.67,79.87460000000007,15.658592963575131
147,sirnak,75.0,TR,100.0,37.52,42.46,46.4,6.934519741011844
148,camargo,0.0,MX,8.0,27.69,-105.17,81.49460000000002,4.585730796475573
149,bambous virieux,75.0,MU,83.0,-20.34,57.76,80.6,9.171461592951147
150,broken hill,40.0,AU,88.0,-31.97,141.45,68.0,11.408403444890453
152,sao filipe,0.0,CV,100.0,14.9,-24.5,69.7046,10.401779611517766
153,saldanha,0.0,PT,46.0,41.42,-6.55,52.1546,6.822672648414878
154,prince george,1.0,CA,56.0,53.92,-122.75,50.0,4.697577889072539
155,iqaluit,40.0,CA,55.0,63.75,-68.52,6.800000000000001,4.697577889072539
156,hermanus,56.0,ZA,92.0,-34.42,19.24,66.99199999999999,2.6843302223271652
157,qiryat shemona,20.0,IL,63.0,33.21,35.57,62.6,6.934519741011844
158,severo-yeniseyskiy,88.0,RU,97.0,60.37,93.04,23.714600000000086,2.3487889445362695
159,constitucion,5.0,MX,7.0,23.99,-104.67,77.0,10.2899325189208
161,nouadhibou,0.0,MR,77.0,20.93,-17.03,66.2,6.934519741011844
162,dongying,32.0,CN,50.0,37.43,118.67,50.084600000000044,13.980886574620653
163,suntar,64.0,RU,73.0,62.16,117.65,3.2846000000000473,2.6843302223271652
164,tabuk,0.0,PH,88.0,17.41,121.44,56.204600000000006,1.7895534815514436
165,baghdad,20.0,IQ,72.0,33.3,44.38,64.4,25.27744292691414
166,college,40.0,US,55.0,64.86,-147.8,46.004000000000055,4.697577889072539
167,poladpur,0.0,IN,82.0,17.98,73.47,71.32460000000006,1.3421651111635826
168,saint-philippe,90.0,CA,86.0,45.36,-73.48,39.992,12.750568556054036
169,victoria,75.0,BN,88.0,5.28,115.24,80.6,2.2369418519393043
170,chimore,12.0,BO,79.0,-16.98,-65.13,81.31460000000008,3.131718592715026
171,novaya bryan,20.0,RU,63.0,51.72,108.27,26.6,2.2369418519393043
172,nyrob,64.0,RU,89.0,60.74,56.73,25.154600000000006,9.171461592951147
173,ketchikan,1.0,US,75.0,55.34,-131.65,53.6,17.224452259932644
174,narsaq,76.0,GL,85.0,60.91,-46.05,32.0,57.48940559484012
175,klaksvik,0.0,FO,80.0,62.23,-6.59,39.2,31.09349174195633
176,qaqortoq,20.0,GL,85.0,60.72,-46.03,32.0,57.48940559484012
177,horasan,68.0,TR,87.0,40.04,42.16,15.344600000000025,2.5724831297302
178,coquimbo,75.0,CL,82.0,-29.95,-71.34,60.8,11.408403444890453
179,cidreira,8.0,BR,62.0,-30.17,-50.22,78.34460000000003,11.743944722681348
180,katsuura,75.0,JP,80.0,33.93,134.5,39.2,11.408403444890453
181,kapaa,90.0,US,78.0,22.08,-159.32,75.2,11.408403444890453
182,awjilah,64.0,LY,52.0,29.14,21.3,62.684600000000046,10.961015074502592
183,yankton,90.0,US,62.0,42.87,-97.4,55.99400000000007,11.408403444890453
184,lagoa,0.0,PT,77.0,37.14,-8.45,62.99600000000005,5.816048815042191
185,san carlos de bariloche,0.0,AR,18.0,-41.13,-71.31,69.8,4.697577889072539
186,springfield,90.0,US,60.0,37.22,-93.29,71.6,14.987510407993339
187,denpasar,75.0,ID,94.0,-8.65,115.22,77.0,3.3554127779089566
188,yeppoon,75.0,AU,94.0,-23.13,150.74,71.6,4.697577889072539
189,carutapera,88.0,BR,90.0,-1.2,-46.02,78.79460000000003,7.158213926205774
190,hamilton,75.0,BM,59.0,32.3,-64.78,64.4,9.171461592951147
191,kurilsk,0.0,RU,96.0,45.23,147.88,24.614600000000088,9.954391241129905
192,papetoai,75.0,PF,70.0,-17.5,-149.87,87.8,3.3554127779089566
193,esperance,20.0,TT,48.0,10.24,-61.45,87.8,14.987510407993339
194,sao jose da coroa grande,0.0,BR,81.0,-8.9,-35.15,82.03460000000004,10.401779611517766
195,vao,12.0,EE,81.0,59.1,26.19,31.994600000000027,10.401779611517766
196,ormara,0.0,PK,76.0,25.21,64.64,73.84460000000003,3.914648240893783
197,kirakira,92.0,SB,100.0,-10.46,161.92,82.48460000000004,6.598978463220948
198,smidovich,48.0,RU,80.0,48.6,133.81,19.304600000000004,4.026495333490748
199,khash,0.0,IR,83.0,28.22,61.21,38.92460000000007,2.7961773149241305
200,hasaki,75.0,JP,100.0,35.73,140.83,39.00200000000008,8.052990666981495
201,vrangel,0.0,RU,87.0,42.73,133.08,38.564600000000084,12.974262741247966
202,miracema do tocantins,92.0,BR,83.0,-9.56,-48.4,79.33460000000005,5.1449662594604
203,barranca,20.0,PE,95.0,-10.75,-77.76,69.43460000000005,6.710825555817913
204,waingapu,64.0,ID,93.0,-9.65,120.26,77.17460000000007,7.7174493891906
205,castro,40.0,CL,63.0,-42.48,-73.76,60.8,9.171461592951147
206,maldonado,75.0,UY,63.0,-34.91,-54.96,66.2,23.040501074974834
207,antalaha,24.0,MG,92.0,-14.9,50.28,78.88460000000005,8.500379037369356
208,marawi,20.0,PH,97.0,8.0,124.29,63.584600000000044,2.3487889445362695
209,birao,92.0,CF,42.0,10.3,22.78,87.43460000000005,3.467259870505922
211,san luis,0.0,AR,23.0,-33.3,-66.34,76.27460000000006,14.316427852411548
212,kjopsvik,90.0,NO,92.0,68.1,16.37,33.008,9.171461592951147
213,taoudenni,64.0,ML,27.0,22.68,-3.98,74.6546,1.565859296357513
214,forestville,5.0,CA,33.0,48.74,-69.09,30.2,17.224452259932644
215,souillac,0.0,FR,57.0,45.6,-0.6,51.8,8.052990666981495
216,torbay,20.0,CA,80.0,47.66,-52.73,37.99400000000007,21.922030149005185
218,abrau-dyurso,0.0,RU,81.0,44.7,37.6,32.0,8.947767407757217
219,geraldton,5.0,CA,22.0,49.72,-86.95,23.0,9.171461592951147
220,igrim,88.0,RU,76.0,63.19,64.42,32.894600000000025,6.710825555817913
221,longyearbyen,20.0,NO,71.0,78.22,15.63,8.600000000000001,9.171461592951147
222,ontario,1.0,US,45.0,34.07,-117.65,71.99600000000005,0.8947767407757218
224,yamada,40.0,JP,100.0,36.58,137.08,44.6,8.052990666981495
225,provideniya,88.0,RU,98.0,64.42,-173.23,31.994600000000027,14.092733667217617
226,qaanaaq,0.0,GL,86.0,77.48,-69.36,-20.655399999999972,8.052990666981495
227,adrar,0.0,DZ,18.0,27.87,-0.29,73.4,8.052990666981495
228,marzuq,0.0,YE,89.0,14.4,46.47,52.42460000000007,3.131718592715026
229,upernavik,0.0,GL,100.0,72.79,-56.15,1.1246000000000649,26.172219667689863
230,half moon bay,75.0,US,58.0,37.46,-122.43,66.99199999999999,6.934519741011844
232,vostok,88.0,RU,96.0,46.45,135.83,25.514600000000087,2.125094759342339
233,placido de castro,36.0,BR,90.0,-10.34,-67.19,79.51460000000009,2.460636037133235
234,namatanai,68.0,PG,100.0,-3.66,152.44,79.69460000000002,6.1515900928330876
235,loviisa,0.0,FI,76.0,60.46,26.23,35.00600000000003,5.816048815042191
236,mao,75.0,DO,58.0,19.55,-71.08,86.0,13.869039482023688
237,verkhnyaya inta,88.0,RU,73.0,65.99,60.32,34.24460000000003,8.052990666981495
238,svetlogorsk,20.0,RU,86.0,53.14,59.15,26.6,2.2369418519393043
239,praia da vitoria,20.0,PT,77.0,38.73,-27.07,62.6,9.507002870742044
240,harer,90.0,US,94.0,42.19,-111.17,37.99400000000007,10.2899325189208
241,buraydah,56.0,SA,34.0,26.33,43.97,80.6,9.171461592951147
242,caronport,44.0,CA,66.0,50.46,-105.81,35.00600000000003,5.995004163197335
243,mozarlandia,36.0,BR,85.0,-14.74,-50.57,78.7046,5.3686604446543305
244,leningradskiy,56.0,RU,94.0,69.38,178.42,0.40460000000005536,7.0463668336088086
247,isangel,68.0,VU,100.0,-19.55,169.27,80.32460000000006,19.90878248225981
249,nanortalik,92.0,GL,93.0,60.14,-45.24,32.894600000000025,40.71234170529534
250,santa vitoria do palmar,0.0,BR,69.0,-33.52,-53.37,69.25460000000001,18.678464463693192
251,villaviciosa,75.0,ES,93.0,43.48,-5.43,57.992,3.3554127779089566
252,santa rosa,80.0,AR,35.0,-36.62,-64.29,71.32460000000006,8.947767407757217
253,belyy yar,75.0,RU,93.0,53.6,91.39,35.6,4.473883703878609
254,husavik,0.0,CA,49.0,50.56,-96.99,30.002000000000077,8.00825182994271
255,puerto carreno,44.0,CO,30.0,6.19,-67.49,98.6,3.3554127779089566
256,kindu,48.0,CD,98.0,-2.95,25.92,70.42460000000007,2.3487889445362695
257,amagasaki,20.0,JP,86.0,34.73,135.41,39.00200000000008,4.697577889072539
258,sarab,92.0,IR,95.0,38.61,44.99,41.084600000000044,2.9080244075210957
259,beringovskiy,12.0,RU,91.0,63.05,179.32,28.574600000000068,5.480507537251296
260,riyadh,90.0,SA,23.0,24.63,46.72,82.4,13.869039482023688
261,port-gentil,40.0,GA,94.0,-0.72,8.78,77.0,5.816048815042191
263,bereda,0.0,ES,47.0,43.27,-7.54,57.992,5.816048815042191
264,balkanabat,20.0,TM,88.0,39.51,54.36,46.84460000000003,3.579106963102887
265,sinnamary,76.0,GF,92.0,5.38,-52.96,80.59460000000003,12.19133309306921
267,alice springs,40.0,AU,78.0,-23.7,133.88,75.2,12.750568556054036
268,buala,76.0,SB,88.0,-8.15,159.59,83.02460000000006,6.1515900928330876
269,te anau,76.0,NZ,81.0,-45.41,167.72,64.03460000000004,8.612226129966322
270,sarankhola,0.0,BD,88.0,22.31,89.79,66.64460000000003,2.9080244075210957
271,yermakovskoye,88.0,RU,97.0,53.28,92.4,34.96460000000009,6.822672648414878
272,scarborough,44.0,GB,81.0,54.28,-0.41,46.4,11.408403444890453
274,san martin,75.0,EC,60.0,-0.3,-78.52,68.0,11.408403444890453
275,butaritari,76.0,KI,100.0,3.07,172.79,82.75460000000001,8.388531944772392
276,trzebiatow,0.0,PL,80.0,54.06,15.26,33.8,2.2369418519393043
277,evensk,44.0,RU,93.0,61.92,159.24,19.124600000000065,15.658592963575131
278,beroroha,32.0,MG,97.0,-21.68,45.17,69.7046,3.8028011482968176
279,egvekinot,80.0,RU,81.0,66.32,-179.17,2.114600000000088,5.1449662594604
280,tuktoyaktuk,20.0,CA,78.0,69.44,-133.03,17.6,6.934519741011844
281,hami,0.0,CN,52.0,42.84,93.51,31.904600000000006,1.565859296357513
282,tamworth,75.0,AU,83.0,-31.09,150.93,69.8,1.1184709259696521
283,soe,8.0,EE,69.0,57.91,26.05,35.6,12.750568556054036
284,saiki,76.0,JP,100.0,32.95,131.89,44.32460000000007,7.4937552039966695
286,sakata,92.0,JP,99.0,38.92,139.93,42.34460000000003,20.13247666745374
287,olavarria,0.0,AR,63.0,-36.89,-60.32,64.03460000000004,15.770440056172097
289,flinders,0.0,AU,47.0,-34.58,150.85,78.99800000000002,20.80355922303553
290,talcahuano,0.0,CL,55.0,-36.72,-73.12,66.2,19.461394111871947
291,melivoia,0.0,GR,80.0,41.33,24.93,51.998000000000026,1.7895534815514436
292,paamiut,48.0,GL,77.0,61.99,-49.67,37.57460000000007,37.13323474219246
293,vinh,68.0,VN,97.0,18.67,105.69,65.92460000000007,3.6909540556998524
294,port elizabeth,1.0,US,20.0,39.31,-74.98,62.6,11.408403444890453
295,sao joao da barra,40.0,BR,69.0,-21.64,-41.05,80.6,6.934519741011844
296,tuatapere,68.0,NZ,92.0,-46.13,167.69,60.998000000000026,3.8028011482968176
297,marion,90.0,US,37.0,35.21,-90.2,73.00400000000005,11.408403444890453
298,lannion,0.0,FR,93.0,48.73,-3.46,48.00200000000008,3.3554127779089566
299,muros,0.0,ES,47.0,42.77,-9.06,66.2,8.052990666981495
300,lompoc,1.0,US,63.0,34.64,-120.46,69.00800000000001,11.408403444890453
301,istok,36.0,PL,82.0,52.85,23.44,42.998000000000026,3.131718592715026
303,hue,75.0,VN,100.0,16.47,107.58,69.8,4.697577889072539
304,presidencia roque saenz pena,56.0,AR,52.0,-26.79,-60.44,85.4546,3.8028011482968176
305,komsomolskiy,88.0,RU,92.0,67.55,63.78,30.644600000000025,14.987510407993339
307,stawell,44.0,AU,81.0,-37.06,142.77,52.1546,14.204580759814583
308,tiksi,32.0,RU,43.0,71.64,128.87,-14.355399999999975,2.6843302223271652
309,guymon,75.0,US,39.0,36.68,-101.48,64.4,4.697577889072539
310,chistogorskiy,88.0,RU,98.0,53.98,87.38,29.924600000000066,2.5724831297302
311,constantine,0.0,DZ,76.0,36.36,6.61,48.2,3.3554127779089566
312,hofn,0.0,IS,98.0,64.25,-15.21,38.92460000000007,8.164837759578461
313,mountain home,90.0,US,100.0,43.13,-115.69,46.004000000000055,10.2899325189208
314,bartica,75.0,GY,62.0,6.41,-58.62,86.0,16.10598133396299
315,yashkul,36.0,RU,83.0,46.17,45.34,33.974600000000066,12.415027278263139
316,dandong,88.0,CN,83.0,40.12,124.37,29.744600000000027,3.579106963102887
317,kashan,90.0,IR,44.0,33.99,51.44,60.8,5.480507537251296
318,urubicha,20.0,BO,67.0,-15.63,-63.08,87.07460000000006,2.2369418519393043
319,chiredzi,0.0,ZW,85.0,-21.05,31.67,67.54460000000003,2.7961773149241305
320,mandera,36.0,ET,12.0,3.94,41.86,89.00600000000003,2.9975020815986677
321,luwuk,32.0,ID,100.0,-0.95,122.79,77.08460000000005,2.125094759342339
322,makakilo city,1.0,US,47.0,21.35,-158.09,80.6,9.171461592951147
323,washington,1.0,US,17.0,38.9,-77.04,66.99199999999999,9.171461592951147
324,yatou,40.0,CM,100.0,3.63,9.81,77.0,8.612226129966322
325,tinos,0.0,GR,50.0,37.54,25.16,57.00200000000008,27.514384778853444
326,asmar,0.0,AF,67.0,35.03,71.36,41.44460000000002,3.019871500118061
327,merauke,12.0,ID,100.0,-8.49,140.4,74.56460000000008,9.84254414853294
328,polson,1.0,US,53.0,47.69,-114.16,55.004000000000055,11.408403444890453
329,atar,0.0,MR,33.0,20.52,-13.05,66.28460000000004,2.7961773149241305
330,pangnirtung,75.0,CA,57.0,66.15,-65.72,19.4,16.10598133396299
331,oistins,75.0,BB,78.0,13.07,-59.53,78.8,25.27744292691414
332,alta gracia,0.0,AR,36.0,-31.66,-64.43,75.2,6.934519741011844
333,mount isa,75.0,AU,78.0,-20.73,139.49,78.8,13.869039482023688
334,georgetown,40.0,GY,66.0,6.8,-58.16,86.0,13.869039482023688
335,ambo,64.0,ET,37.0,8.98,37.86,59.084600000000044,2.9080244075210957
336,copalillo,0.0,MX,17.0,18.03,-99.04,93.99199999999999,1.006623833372687
337,hualmay,24.0,PE,67.0,-11.1,-77.61,75.01460000000009,4.362036611281644
338,nago,0.0,IT,47.0,45.88,10.89,60.008,2.2369418519393043
339,dunedin,92.0,NZ,92.0,-45.87,170.5,62.00600000000003,8.276684852175427
340,belogorsk,8.0,UA,100.0,45.06,34.59,30.824600000000068,3.3554127779089566
341,port blair,8.0,IN,100.0,11.67,92.75,82.21460000000009,8.388531944772392
342,takoradi,44.0,GH,95.0,4.89,-1.75,83.11460000000008,9.059614500354183
343,sassandra,20.0,CI,95.0,4.95,-6.09,83.92460000000007,12.415027278263139
344,coihaique,0.0,CL,48.0,-45.58,-72.07,62.6,3.3554127779089566
345,bressanone,0.0,IT,38.0,46.72,11.66,60.8,2.2369418519393043
346,chipinge,0.0,ZW,93.0,-20.19,32.62,63.854600000000005,1.1184709259696521
347,volksrust,32.0,ZA,93.0,-27.36,29.88,53.144600000000025,2.5724831297302
348,aklavik,40.0,CA,54.0,68.22,-135.01,28.4,4.697577889072539
349,arrifes,20.0,PT,77.0,37.77,-25.7,59.0,8.052990666981495
350,beira,0.0,ES,47.0,43.2,-8.36,59.0,5.816048815042191
351,san jose pinula,40.0,GT,28.0,14.55,-90.41,80.6,13.869039482023688
353,poum,0.0,MK,81.0,41.28,20.71,35.684600000000046,1.9014005741484088
354,san andres,44.0,PH,100.0,13.32,122.68,77.80460000000001,7.829296481787566
355,nouakchott,0.0,MR,77.0,18.08,-15.98,66.2,19.461394111871947
356,belmonte,0.0,PT,58.0,40.36,-7.35,57.992,3.914648240893783
357,san miguel,75.0,AR,46.0,-34.54,-58.72,69.8,16.10598133396299
358,kruisfontein,100.0,ZA,88.0,-34.0,24.73,66.28460000000004,13.197956926441895
359,padang,40.0,ID,94.0,-0.92,100.36,75.2,2.2369418519393043
360,dibrugarh,0.0,IN,90.0,27.48,94.9,55.664600000000085,3.579106963102887
362,payson,75.0,US,75.0,40.04,-111.73,48.992,12.750568556054036
363,poplar bluff,40.0,US,56.0,36.76,-90.39,71.6,17.224452259932644
364,thinadhoo,92.0,MV,100.0,0.53,72.93,83.6546,8.835920315160253
365,ternate,40.0,PH,73.0,14.29,120.72,78.00800000000001,6.934519741011844
366,pangkalanbuun,36.0,ID,94.0,-2.68,111.62,72.67460000000007,2.7961773149241305
368,san vicente,0.0,SV,40.0,13.64,-88.78,89.6,8.052990666981495
369,dagshai,40.0,IN,100.0,30.88,77.05,62.6,4.697577889072539
370,burley,90.0,US,75.0,42.54,-113.79,44.6,13.869039482023688
371,victor harbor,75.0,AU,55.0,-35.55,138.62,60.8,23.040501074974834
372,peniche,0.0,PT,67.0,39.36,-9.38,66.00200000000008,3.3554127779089566
373,dingle,0.0,PH,73.0,11.0,122.67,75.19460000000002,10.625473796711695
374,kafue,0.0,ZM,68.0,-15.74,28.18,70.42460000000007,7.381908111399705
375,parit buntar,75.0,MY,88.0,5.13,100.49,78.8,3.3554127779089566
376,fiditi,20.0,NG,83.0,7.71,3.92,80.6,11.408403444890453
378,kavaratti,0.0,IN,100.0,10.57,72.64,83.47460000000007,2.7961773149241305
379,mutis,24.0,CO,90.0,6.23,-77.4,78.79460000000003,5.704201722445227
380,ossora,80.0,RU,92.0,59.24,163.07,9.854600000000005,17.448146445126575
381,acapulco,5.0,MX,70.0,16.86,-99.88,86.0,8.052990666981495
382,neuquen,0.0,AR,30.0,-38.95,-68.06,71.6,8.052990666981495
383,hay river,40.0,CA,48.0,60.82,-115.79,41.0,10.2899325189208
384,udachnyy,0.0,RU,43.0,66.42,112.4,-15.345399999999941,2.460636037133235
385,khorixas,0.0,NA,57.0,-20.37,14.96,66.82460000000006,3.131718592715026
386,san felipe,0.0,CL,24.0,-32.75,-70.73,86.0,1.990878248225981
387,ust-maya,20.0,RU,59.0,60.42,134.54,-7.515399999999957,3.579106963102887
388,myitkyina,0.0,MM,83.0,25.38,97.4,61.1546,2.3487889445362695
389,soyo,56.0,AO,91.0,-6.13,12.37,78.25460000000001,3.131718592715026
390,jinchang,0.0,CN,50.0,38.52,102.19,13.634600000000045,3.914648240893783
391,deputatskiy,8.0,RU,43.0,69.3,139.9,-29.025399999999934,4.92127207426647
392,lagunas,36.0,PE,68.0,-5.23,-75.68,85.81460000000008,3.019871500118061
393,pilot butte,75.0,CA,47.0,50.48,-104.42,35.00600000000003,5.816048815042191
394,gizo,20.0,IL,82.0,31.8,34.94,60.8,4.697577889072539
395,port macquarie,90.0,AU,100.0,-31.43,152.91,71.00600000000003,3.3554127779089566
399,alekseyevsk,0.0,RU,58.0,57.84,108.35,-7.515399999999957,2.5724831297302
401,laguna,5.0,MX,12.0,27.52,-110.01,84.2,6.934519741011844
402,riviere-au-renard,20.0,CA,31.0,49.0,-64.4,33.8,25.27744292691414
404,san jorge,0.0,SV,39.0,13.41,-88.34,95.0,9.171461592951147
405,lodja,64.0,CD,87.0,-3.52,23.6,76.00460000000001,3.3554127779089566
407,fujin,44.0,CN,71.0,47.24,132.03,12.644600000000025,2.9080244075210957
408,port keats,76.0,AU,90.0,-14.25,129.55,83.38460000000005,14.204580759814583
409,mabaruma,8.0,GY,73.0,8.2,-59.78,82.30460000000001,9.059614500354183
411,pavino,0.0,RU,86.0,55.02,82.61,30.2,8.947767407757217
412,la garriga,12.0,ES,62.0,41.68,2.29,64.00400000000005,6.934519741011844
413,elizabeth city,1.0,US,36.0,36.3,-76.22,71.6,8.052990666981495
414,vidalia,75.0,US,56.0,31.57,-91.43,75.99199999999999,10.2899325189208
416,tananger,75.0,NO,93.0,58.94,5.59,37.99400000000007,8.052990666981495
417,nelson bay,0.0,AU,94.0,-32.72,152.14,73.00400000000005,5.816048815042191
419,port hueneme,20.0,US,72.0,34.15,-119.2,71.99600000000005,10.2899325189208
420,gayeri,8.0,BF,29.0,12.65,0.49,80.77460000000006,6.1515900928330876
421,hangu,0.0,PK,89.0,33.53,71.06,36.67460000000007,1.9014005741484088
422,todos santos,5.0,MX,24.0,23.45,-110.23,86.0,11.408403444890453
423,jian,0.0,IN,61.0,25.65,87.89,64.21460000000009,2.7961773149241305
424,nizhniy kuranakh,68.0,RU,71.0,58.84,125.49,9.494600000000027,5.592354629848261
425,cherskiy,0.0,RU,37.0,68.75,161.3,-11.745399999999947,4.138342426087713
426,vila velha,75.0,BR,78.0,-3.71,-38.6,82.4,6.934519741011844
428,tura,0.0,IN,74.0,25.52,90.21,63.224600000000066,3.6909540556998524
429,santa marinella,0.0,IT,100.0,42.04,11.87,55.99400000000007,2.2369418519393043
432,churapcha,32.0,RU,71.0,62.0,132.43,-2.7453999999999468,3.8028011482968176
433,gorele,75.0,TR,80.0,41.03,39.0,41.0,6.934519741011844
434,hervey bay,76.0,AU,94.0,-25.3,152.85,73.99400000000007,5.1449662594604
435,katunino,90.0,RU,89.0,64.39,40.63,33.8,4.473883703878609
436,quelimane,20.0,MZ,83.0,-17.88,36.89,78.8,5.816048815042191
437,wattegama,0.0,LK,87.0,7.35,80.68,61.604600000000005,2.125094759342339
438,usinsk,88.0,RU,90.0,66.0,57.56,32.98460000000004,13.869039482023688
440,burnie,80.0,AU,75.0,-41.05,145.91,53.00600000000003,2.9975020815986677
441,mareeba,40.0,AU,94.0,-16.99,145.42,77.0,6.934519741011844
442,grand gaube,75.0,MU,83.0,-20.01,57.66,80.6,9.171461592951147
443,dakoro,64.0,NE,20.0,14.51,6.76,82.48460000000004,9.171461592951147
445,ulaangom,36.0,MN,59.0,49.98,92.07,5.804600000000004,2.460636037133235
446,richards bay,20.0,ZA,81.0,-28.77,32.06,75.01460000000009,9.507002870742044
447,meulaboh,0.0,ID,100.0,4.14,96.13,76.54460000000003,4.026495333490748
448,krasnyy chikoy,24.0,RU,78.0,50.36,108.75,14.354600000000005,2.125094759342339
449,gat,0.0,SN,77.0,14.69,-16.54,68.0,18.342923185902293
450,zhengjiatun,76.0,CN,64.0,43.51,123.51,21.644600000000025,3.6909540556998524
451,fereydun kenar,90.0,IR,87.0,36.69,52.52,55.4,9.171461592951147
452,yarada,20.0,IN,83.0,17.65,83.27,78.8,2.2369418519393043
453,bubaque,76.0,GW,97.0,11.28,-15.83,78.52460000000006,14.76381622279941
454,muisne,0.0,EC,74.0,0.61,-80.02,84.2,8.052990666981495
455,ukwa,32.0,NG,93.0,5.47,8.01,75.46460000000009,7.158213926205774
457,kesova gora,48.0,RU,92.0,57.58,37.3,30.824600000000068,10.2899325189208
458,leiderdorp,0.0,NL,75.0,52.16,4.53,44.99600000000005,12.750568556054036
459,turan,92.0,RU,84.0,52.15,93.92,25.154600000000006,2.5724831297302
460,imbituba,40.0,BR,65.0,-28.24,-48.67,82.4,6.934519741011844
461,christchurch,44.0,NZ,100.0,-43.53,172.64,75.99199999999999,3.3554127779089566
462,isiolo,20.0,KE,72.0,0.35,37.58,69.07460000000006,3.914648240893783
463,roald,75.0,NO,86.0,62.58,6.12,39.2,3.3554127779089566
465,wuhu,92.0,CN,93.0,31.35,118.43,50.0,13.421651111635827
466,arona,0.0,IT,33.0,45.76,8.56,64.00400000000005,1.1184709259696521
467,gumia,0.0,IN,52.0,23.8,85.83,63.67460000000007,6.934519741011844
468,astoria,1.0,US,76.0,46.19,-123.83,57.00200000000008,5.816048815042191
469,henties bay,80.0,NA,86.0,-22.12,14.28,62.99600000000005,5.010749748344042
470,darhan,8.0,MN,65.0,49.49,105.92,14.084600000000044,2.7961773149241305
471,kalaleh,12.0,IR,93.0,37.38,55.49,55.4,6.934519741011844
472,shubarkuduk,56.0,KZ,83.0,49.15,56.49,42.794600000000024,14.651969130202444
473,balabac,68.0,PH,99.0,7.99,117.06,81.67460000000007,13.757192389426722
474,cravo norte,36.0,CO,28.0,6.3,-70.2,98.41460000000009,7.605602296593635
475,hemsedal,24.0,NO,75.0,60.86,8.55,26.00600000000003,1.006623833372687
476,omsukchan,0.0,RU,41.0,62.53,155.8,-7.155399999999972,6.934519741011844
477,nizhniy baskunchak,24.0,RU,89.0,48.22,46.83,32.354600000000005,11.296556352293488
478,hobyo,12.0,SO,91.0,5.35,48.53,77.89460000000003,9.171461592951147
479,kahului,75.0,US,61.0,20.89,-156.47,78.8,18.342923185902293
480,gwadar,0.0,PK,85.0,25.12,62.33,71.05460000000001,2.5724831297302
481,tarauaca,0.0,BR,65.0,-8.16,-70.77,88.24460000000002,3.6909540556998524
482,morondava,0.0,MG,90.0,-20.3,44.28,81.04460000000003,3.914648240893783
484,krasnoarmeyskiy,12.0,RU,81.0,46.12,40.39,32.0,11.743944722681348
485,ayr,20.0,GB,91.0,55.46,-4.63,42.8,12.750568556054036
486,inuvik,40.0,CA,54.0,68.36,-133.71,28.4,4.697577889072539
487,kultayevo,40.0,RU,92.0,57.89,55.94,26.6,6.710825555817913
488,caravelas,44.0,BR,98.0,-17.73,-39.27,83.2046,15.323051685784236
490,yibin,0.0,CN,85.0,28.77,104.64,38.74460000000003,2.6843302223271652
491,senador guiomard,75.0,BR,79.0,-10.15,-67.74,84.2,6.934519741011844
492,saint anthony,90.0,US,70.0,43.97,-111.68,44.6,13.869039482023688
493,altoona,1.0,US,27.0,40.52,-78.39,55.99400000000007,6.934519741011844
494,pemberton,0.0,AU,80.0,-34.44,116.03,50.0,1.006623833372687
495,codrington,20.0,AU,94.0,-28.95,153.24,77.0,1.1184709259696521
496,whitianga,36.0,NZ,82.0,-36.83,175.7,71.99600000000005,2.9975020815986677
497,cayenne,92.0,GF,78.0,4.94,-52.33,80.6,6.934519741011844
498,waitati,92.0,NZ,91.0,-45.75,170.57,62.99600000000005,8.276684852175427
499,kushima,92.0,JP,75.0,31.5,131.29,41.0,5.010749748344042
500,severo-kurilsk,36.0,RU,100.0,50.68,156.12,25.784600000000047,13.757192389426722
502,shebalino,76.0,RU,77.0,51.29,85.68,25.244600000000027,3.6909540556998524
503,keflavik,75.0,IS,100.0,64.0,-22.56,33.998000000000026,5.816048815042191
504,fairbanks,40.0,US,55.0,64.84,-147.72,50.0,4.697577889072539
505,tutoia,75.0,BR,69.0,-2.76,-42.27,80.6,4.697577889072539
506,yerbogachen,0.0,RU,71.0,61.28,108.01,-2.655399999999972,2.5724831297302
507,guhagar,0.0,IN,93.0,17.48,73.19,74.83460000000005,1.565859296357513
508,tabou,32.0,CI,93.0,4.42,-7.36,84.37460000000007,11.967638907875278
509,raymondville,75.0,US,68.0,37.34,-91.83,68.0,9.171461592951147
511,cherrapunji,0.0,IN,83.0,25.28,91.72,54.67460000000007,2.9080244075210957
513,hambantota,0.0,LK,100.0,6.12,81.12,79.24460000000002,8.724073222563288
514,pacific grove,1.0,US,44.0,36.62,-121.92,66.99199999999999,6.934519741011844
515,lewiston,90.0,US,76.0,46.42,-117.02,51.008,3.3554127779089566
516,miandrivazo,20.0,MG,88.0,-19.53,45.46,71.68460000000005,2.7961773149241305
517,alyangula,40.0,AU,83.0,-13.85,136.42,84.2,9.171461592951147
518,auki,0.0,NG,30.0,12.18,6.51,75.46460000000009,6.598978463220948
519,saint-augustin,0.0,FR,62.0,44.83,-0.61,57.2,9.171461592951147
520,syasstroy,80.0,RU,73.0,60.14,32.56,31.274600000000067,7.829296481787566
521,boa vista,40.0,BR,27.0,2.82,-60.67,98.6,5.816048815042191
522,starozhilovo,64.0,RU,96.0,54.23,39.91,33.008,1.006623833372687
523,la rioja,20.0,AR,64.0,-29.41,-66.86,77.17460000000007,4.250189518684678
524,najran,0.0,SA,29.0,17.54,44.22,77.0,4.697577889072539
525,dudinka,80.0,RU,89.0,69.41,86.18,16.874600000000065,12.974262741247966
526,pontianak,0.0,ID,100.0,-0.02,109.34,77.98460000000004,6.263437185430052
527,isabela,12.0,PH,88.0,10.2,122.99,71.68460000000005,4.138342426087713
528,beloha,20.0,MG,75.0,-25.17,45.06,76.27460000000006,15.4348987783812
529,irece,92.0,BR,99.0,-11.3,-41.86,68.62460000000007,3.019871500118061
530,crotone,0.0,IT,92.0,39.09,17.12,60.704600000000006,5.592354629848261
531,suhbaatar,36.0,MN,83.0,50.23,106.21,22.274600000000067,2.9080244075210957
532,palmerston,90.0,CA,70.0,43.83,-80.85,50.0,17.224452259932644
533,guerrero negro,12.0,MX,46.0,27.97,-114.04,72.49460000000002,12.63872146345707
534,karoi,0.0,ZW,66.0,-16.82,29.68,72.04460000000003,8.612226129966322
535,seoul,90.0,KR,74.0,37.57,126.98,37.4,1.1184709259696521
536,pinerolo,0.0,IT,53.0,44.89,7.33,62.99600000000005,6.934519741011844
538,skelleftea,0.0,SE,55.0,64.75,20.95,33.8,10.2899325189208
539,sao paulo de olivenca,48.0,BR,82.0,-3.38,-68.87,82.30460000000001,0.5592354629848261
540,lac du bonnet,0.0,CA,51.0,50.25,-96.06,24.008000000000003,9.99913007816869
541,colac,80.0,AU,82.0,-38.34,143.59,57.00200000000008,5.010749748344042
542,barabai,56.0,ID,96.0,-2.59,115.38,72.8546,1.3421651111635826
543,itarema,68.0,BR,95.0,-2.92,-39.92,78.07460000000006,3.2435656853119914
544,phalodi,20.0,IN,56.0,27.13,72.36,67.9046,7.158213926205774
545,chara,0.0,GR,87.0,39.42,22.43,44.6,2.125094759342339
546,zhanaozen,24.0,KZ,84.0,43.35,52.85,46.57460000000007,5.256813352057366
547,zhezkazgan,0.0,KZ,68.0,47.8,67.71,22.544600000000024,2.6843302223271652
548,agadez,36.0,NE,24.0,16.97,7.99,76.36460000000008,5.816048815042191
549,binga,0.0,ZW,94.0,-17.62,27.34,74.6546,2.5724831297302
550,duayaw nkwanta,76.0,GH,86.0,7.17,-2.1,74.74460000000002,9.395155778145078
551,syracuse,40.0,US,45.0,43.05,-76.15,51.008,10.2899325189208
552,khromtau,76.0,KZ,87.0,50.26,58.44,35.77460000000006,11.072862167099556
553,babati,36.0,TZ,57.0,-4.21,35.75,72.4046,7.9411435743845304
554,altay,36.0,CN,60.0,47.83,88.13,11.744600000000027,2.125094759342339
555,palana,56.0,RU,66.0,59.08,159.95,11.474600000000066,7.381908111399705
556,silver city,1.0,US,20.0,32.77,-108.28,71.00600000000003,9.171461592951147
557,trinidad,0.0,UY,49.0,-33.52,-56.9,68.80460000000001,17.11260516733568
558,cajnice,0.0,BA,21.0,43.56,19.07,51.8,1.1184709259696521
559,cholet,90.0,FR,76.0,47.06,-0.88,51.008,11.408403444890453
561,broome,0.0,GB,65.0,52.47,1.45,48.00200000000008,9.171461592951147
562,auray,0.0,FR,81.0,47.67,-2.99,48.00200000000008,9.171461592951147
563,hattiesburg,1.0,US,40.0,31.33,-89.29,77.0,4.697577889072539
564,cuautepec,0.0,MX,45.0,16.75,-99.0,89.68460000000005,7.9411435743845304
565,san jeronimo,90.0,PE,328.0,-13.65,-73.37,37.4,2.3487889445362695
566,emet,0.0,TR,79.0,39.34,29.26,23.984600000000047,2.5724831297302
567,haines junction,0.0,CA,50.0,60.75,-137.51,39.644600000000025,3.019871500118061
568,naron,0.0,ES,47.0,43.52,-8.15,59.0,5.816048815042191
569,ushtobe,92.0,KZ,93.0,45.25,77.98,41.44460000000002,3.019871500118061
570,valparaiso,40.0,US,89.0,41.47,-87.06,53.6,6.934519741011844
571,tirumullaivasal,0.0,IN,91.0,11.24,79.84,78.88460000000005,6.934519741011844
572,graaff-reinet,0.0,ZA,77.0,-32.25,24.53,60.794600000000024,6.1515900928330876
573,oksfjord,75.0,NO,68.0,70.24,22.35,32.0,16.10598133396299
574,dicabisagan,76.0,PH,100.0,17.08,122.42,73.21460000000009,4.697577889072539
575,ciucsangeorgiu,0.0,RO,65.0,46.32,25.95,41.0,1.3421651111635826
576,taonan,8.0,CN,41.0,45.34,122.78,29.114600000000088,11.743944722681348
577,puerto cabezas,40.0,NI,66.0,14.04,-83.39,86.0,6.934519741011844
578,atambua,48.0,ID,100.0,-9.11,124.89,78.79460000000003,3.8028011482968176
579,arani,20.0,IN,83.0,13.33,80.08,82.4,4.697577889072539
580,galveston,90.0,US,100.0,40.58,-86.19,53.00600000000003,9.171461592951147
581,malmesbury,1.0,GB,65.0,51.58,-2.1,48.992,5.816048815042191
582,sisimiut,56.0,GL,80.0,66.94,-53.67,12.194600000000026,4.138342426087713
584,altamira,40.0,BR,66.0,-3.2,-52.21,86.0,6.934519741011844
585,ilulissat,68.0,GL,46.0,69.22,-51.1,30.2,19.461394111871947
586,mendi,64.0,ET,81.0,9.8,35.1,63.584600000000044,2.5724831297302
587,demmin,20.0,DE,72.0,53.91,13.03,42.8,6.934519741011844
588,baruun-urt,0.0,MN,64.0,46.68,113.28,17.684600000000046,7.7174493891906
589,aripuana,12.0,BR,85.0,-9.17,-60.63,82.03460000000004,2.6843302223271652
590,gisborne,44.0,NZ,72.0,-38.66,178.02,69.99800000000002,5.010749748344042
591,colares,0.0,PT,48.0,38.8,-9.45,66.00200000000008,4.697577889072539
592,ouadda,80.0,CF,34.0,8.07,22.4,85.27460000000006,9.395155778145078
593,itoman,75.0,JP,59.0,26.12,127.67,66.2,3.3554127779089566
594,tumbagaan,36.0,PH,100.0,5.37,120.31,81.94460000000002,6.934519741011844
595,zhigansk,0.0,RU,81.0,66.77,123.37,-4.905399999999972,6.375284278027018
596,maceio,40.0,BR,70.0,-9.67,-35.74,84.2,14.987510407993339
597,flin flon,20.0,CA,38.0,54.77,-101.88,23.0,2.125094759342339
598,beloomut,56.0,RU,98.0,54.94,39.34,33.008,1.006623833372687
599,jackson,75.0,US,37.0,35.61,-88.82,73.00400000000005,16.10598133396299
601,manokwari,68.0,ID,99.0,-0.87,134.08,80.77460000000006,6.375284278027018
603,grindavik,75.0,IS,100.0,63.84,-22.43,33.998000000000026,5.816048815042191
604,eyl,88.0,SO,100.0,7.98,49.82,76.4546,6.710825555817913
